City_ID,City,Clouds,Country,Date,Humidity,Lat,Lng,Max Temp,Wind
0,haines junction,88,CA,1533612875,57,60.75,-137.51,58.38,4.5
1,marataizes,92,BR,1533612875,100,-21.04,-40.82,68.82,13.11
2,vaini,92,IN,1533612875,99,15.34,74.49,69.72,9.19
3,airai,0,TL,1533612876,44,-8.93,125.41,83.17,1.81
4,mataura,100,NZ,1533612876,82,-46.19,168.86,44.25,3.94
5,nikolskoye,75,RU,1533610800,87,59.7,30.79,57.2,8.95
6,xichang,56,CN,1533612876,76,27.88,102.25,66.07,1.59
7,katsuura,20,JP,1533610800,62,33.93,134.5,87.8,5.82
8,ust-nera,24,RU,1533612877,66,64.57,143.24,55.27,2.59
9,carnarvon,36,ZA,1533612877,94,-30.97,22.13,31.38,11.1
10,busselton,8,AU,1533612877,96,-33.64,115.35,62.16,15.79
11,pevek,24,RU,1533612877,100,69.7,170.27,41.41,12.88
12,laizhou,8,CN,1533612877,73,37.18,119.93,93.61,10.2
13,sanming,8,CN,1533612878,73,26.24,117.6,86.86,1.03
14,saint-philippe,90,CA,1533610800,88,45.36,-73.48,75.2,8.05
15,yellowknife,90,CA,1533610800,82,62.45,-114.38,64.4,3.36
16,bara,56,NG,1533612878,99,10.41,10.6,68.64,2.93
17,punta arenas,90,CL,1533610800,100,-53.16,-70.91,33.8,3.36
18,bredasdorp,56,ZA,1533610800,81,-34.53,20.04,44.6,10.29
19,arraial do cabo,92,BR,1533612879,100,-22.97,-42.02,65.76,8.08
20,albany,20,US,1533610440,65,42.65,-73.75,80.6,4.7
21,shubarkuduk,0,KZ,1533612879,68,49.15,56.49,77.46,4.05
22,broome,0,GB,1533612000,88,52.47,1.45,66.2,4.7
23,tiznit,0,MA,1533612880,96,29.7,-9.73,68.14,1.81
24,ushuaia,90,AR,1533610800,100,-54.81,-68.31,32.0,11.41
25,tiksi,8,RU,1533612880,78,71.64,128.87,50.19,14.67
26,matara,92,PE,1533612881,95,-13.74,-72.9,39.52,2.15
27,saldanha,8,PT,1533612765,54,41.42,-6.55,60.81,6.17
28,qaanaaq,76,GL,1533612821,85,77.48,-69.36,39.21,13.22
29,cidreira,0,BR,1533612881,86,-30.17,-50.22,46.81,6.06
30,mareeba,40,AU,1533610800,69,-16.99,145.42,80.6,10.29
31,general pico,92,AR,1533612881,45,-35.66,-63.75,67.96,22.06
32,myitkyina,80,MM,1533612882,98,25.38,97.4,75.75,2.37
33,aklavik,90,CA,1533610800,71,68.22,-135.01,51.8,2.24
34,eureka,75,US,1533611100,93,40.8,-124.16,55.4,5.06
35,high prairie,76,CA,1533612883,45,55.43,-116.48,69.18,9.42
36,hilo,75,US,1533610560,69,19.71,-155.08,80.6,9.17
37,rabak,24,SD,1533612883,96,13.18,32.74,71.25,3.83
38,dubbo,75,AU,1533610800,43,-32.25,148.6,55.4,12.75
39,rikitea,56,PF,1533612884,98,-23.12,-134.97,75.61,4.16
40,zhangye,92,CN,1533612884,73,38.94,100.46,72.82,4.5
41,hobart,20,AU,1533610800,46,-42.88,147.33,53.6,17.22
42,new norfolk,20,AU,1533610800,46,-42.78,147.06,53.6,17.22
43,medicine hat,40,CA,1533610800,31,50.04,-110.68,78.8,5.82
44,poum,0,MK,1533612885,88,41.28,20.71,53.11,2.04
45,barrow,88,AR,1533612885,50,-38.31,-60.23,60.27,18.7
46,fernie,75,CA,1533610800,26,49.5,-115.06,80.6,5.82
47,ancud,12,CL,1533612685,93,-41.87,-73.83,43.44,5.95
48,khatanga,8,RU,1533612886,97,71.98,102.47,51.0,9.64
49,lagos,20,NG,1533610800,88,6.46,3.39,77.0,4.7
50,sarh,0,TD,1533607200,83,9.14,18.39,77.0,4.16
51,sola,40,NO,1533612000,93,58.89,5.65,62.6,6.93
52,avarua,75,CK,1533610800,83,-21.21,-159.78,78.8,19.46
53,umri,32,IN,1533612887,98,29.95,76.91,79.89,4.5
54,troitskoye,0,RU,1533612887,52,52.98,84.68,66.03,4.83
55,plettenberg bay,92,ZA,1533612887,100,-34.05,23.37,53.61,28.77
56,victoria,75,BN,1533609000,78,5.28,115.24,87.8,3.36
57,rocha,0,UY,1533612888,91,-34.48,-54.34,45.87,6.73
58,aasiaat,92,GL,1533612888,83,68.71,-52.87,47.13,15.12
59,windsor,90,US,1533611700,94,42.3,-83.03,71.6,7.18
60,ta khmau,40,KH,1533610800,50,11.48,104.95,95.0,5.82
61,vila franca do campo,75,PT,1533610800,68,37.72,-25.43,69.8,5.82
62,hudson bay,0,CA,1533612889,64,52.86,-102.4,69.45,4.83
63,arvika,8,SE,1533610200,81,59.65,12.59,53.6,3.36
64,hermanus,68,ZA,1533612767,98,-34.42,19.24,43.35,8.19
65,saint-pierre,0,FR,1533610800,52,48.95,4.24,68.0,6.93
66,fortuna,0,ES,1533610800,83,38.18,-1.13,77.0,2.24
67,owando,0,CG,1533612890,92,-0.49,15.91,71.74,3.27
68,palermo,36,CO,1533610800,57,2.89,-75.43,80.6,2.04
69,upernavik,92,GL,1533612773,87,72.79,-56.15,41.86,32.79
70,bluff,80,AU,1533612890,22,-23.58,149.07,68.73,12.21
71,ahipara,0,NZ,1533612891,87,-35.17,173.16,59.14,4.94
72,carutapera,0,BR,1533612891,88,-1.2,-46.02,78.67,10.2
73,lisakovsk,12,KZ,1533612891,52,52.55,62.49,75.34,7.07
74,port elizabeth,1,US,1533610560,94,39.31,-74.98,80.6,10.98
75,cherskiy,64,RU,1533612892,58,68.75,161.3,50.28,6.85
76,ipu,0,BR,1533612892,80,-4.32,-40.71,71.29,3.38
77,la tuque,64,CA,1533612892,83,47.44,-72.79,71.74,2.82
78,salina,1,US,1533611700,69,36.29,-95.15,89.6,4.7
79,maaseik,0,NL,1533612300,72,51.09,5.79,66.2,4.7
80,olds,75,CA,1533610800,52,51.79,-114.11,69.8,3.36
81,butaritari,64,KI,1533612893,100,3.07,172.79,79.53,3.49
82,houma,76,CN,1533612893,76,35.63,111.36,83.13,3.38
83,baruun-urt,68,MN,1533612893,77,46.68,113.28,68.77,6.4
84,hasaki,75,JP,1533610800,94,35.73,140.83,75.2,19.46
85,namatanai,80,PG,1533612894,100,-3.66,152.44,79.71,10.76
86,jinchang,80,CN,1533612894,87,38.52,102.19,62.88,4.61
87,kigoma,48,TZ,1533612894,96,-4.88,29.64,75.48,3.49
88,reforma,90,MX,1533609960,68,24.02,-104.65,66.2,5.82
89,drumnadrochit,75,GB,1533612000,82,57.34,-4.48,57.2,9.17
90,isla aguada,90,MX,1533609900,83,18.78,-91.49,78.8,18.34
91,kapaa,90,US,1533610560,78,22.08,-159.32,86.0,16.11
92,constitucion,90,MX,1533609960,68,23.99,-104.67,66.2,5.82
93,uthal,88,PK,1533612896,88,25.81,66.62,78.18,3.38
94,cape town,75,ZA,1533610800,81,-33.93,18.42,48.2,3.36
95,dikson,32,RU,1533612623,82,73.51,80.55,47.31,19.6
96,millinocket,1,US,1533610560,88,45.66,-68.71,75.2,2.59
97,torbay,90,CA,1533610800,93,47.66,-52.73,57.2,8.05
98,puri,20,ID,1533607200,58,-7.54,112.45,82.4,5.28
99,rawson,92,AR,1533612897,58,-43.3,-65.11,56.13,9.98
100,puerto ayora,88,EC,1533612782,100,-0.74,-90.35,69.9,13.33
101,vestmannaeyjar,20,IS,1533612897,84,63.44,-20.27,50.32,18.37
102,tual,20,ID,1533612898,100,-5.67,132.75,78.54,10.42
103,san jose,100,PH,1533612843,100,15.79,120.99,75.07,1.92
104,verkhnevilyuysk,0,RU,1533612899,64,63.45,120.31,66.12,3.38
105,ganzhou,0,CN,1533612899,70,25.86,114.93,89.43,2.82
106,mamit,92,IN,1533612899,93,23.92,92.49,78.72,1.92
107,tabanan,75,ID,1533610800,74,-8.54,115.13,80.6,12.75
108,nemuro,75,JP,1533610800,77,43.32,145.57,59.0,6.93
109,black river,20,JM,1533610800,62,18.03,-77.85,84.2,3.36
110,castro,36,CL,1533612901,100,-42.48,-73.76,41.01,5.61
111,husavik,0,CA,1533612852,84,50.56,-96.99,60.54,5.17
112,san quintin,75,PH,1533610800,66,17.54,120.52,87.8,4.7
113,hithadhoo,36,MV,1533612901,100,-0.6,73.08,79.21,9.64
114,severnoye,36,RU,1533612902,81,54.09,52.54,72.15,2.93
115,atambua,0,ID,1533612902,77,-9.11,124.89,84.07,1.81
116,boralday,75,KZ,1533610800,30,43.36,76.86,84.2,2.24
117,east london,0,ZA,1533610800,46,-33.02,27.91,53.6,9.17
118,beloha,92,MG,1533612902,95,-25.17,45.06,65.31,8.41
119,college,90,US,1533610680,93,64.86,-147.8,59.0,3.36
120,santa luzia,75,BR,1533610800,88,-19.77,-43.85,66.2,2.71
121,beyneu,0,KZ,1533612904,61,45.32,55.19,74.94,7.85
122,jalu,0,LY,1533612904,41,29.03,21.55,81.01,10.2
123,lebu,75,ET,1533607200,100,8.96,38.73,55.4,2.24
124,bethel,90,US,1533611100,93,60.79,-161.76,57.2,10.29
125,tuatapere,44,NZ,1533612799,87,-46.13,167.69,52.84,17.36
126,vila velha,40,BR,1533610800,83,-3.71,-38.6,78.8,11.41
127,jamestown,88,AU,1533612905,98,-33.21,138.6,47.44,15.46
128,karratha,0,AU,1533612906,14,-20.74,116.85,73.05,13.78
129,beringovskiy,80,RU,1533612906,100,63.05,179.32,52.12,11.99
130,la grande,1,US,1533610560,27,45.32,-118.09,75.2,8.05
131,whitehorse,90,CA,1533610800,45,60.72,-135.06,68.0,18.34
132,wuda,68,CN,1533612906,75,39.5,106.72,75.79,5.61
133,georgetown,40,GY,1533610800,94,6.8,-58.16,75.2,4.7
134,ribeira grande,0,PT,1533612907,100,38.52,-28.7,70.39,8.08
135,businga,80,CD,1533612908,97,3.34,20.89,69.04,3.94
136,guerrero negro,0,MX,1533612908,70,27.97,-114.04,75.93,7.52
137,fairbanks,90,US,1533610680,93,64.84,-147.72,59.0,3.36
138,gamba,12,CN,1533612908,100,28.28,88.52,37.23,2.93
139,ugoofaaru,76,MV,1533612909,98,5.67,73.0,83.17,18.59
140,thompson,75,CA,1533610800,93,55.74,-97.86,60.8,5.82
141,rubizhne,36,UA,1533612909,68,49.02,38.37,67.65,6.4
142,port alfred,0,ZA,1533612909,91,-33.59,26.89,56.76,15.79
143,lyuban,0,BY,1533612910,71,52.8,28.0,64.09,9.42
144,kaeo,36,NZ,1533612910,83,-35.1,173.78,59.19,4.94
145,sao filipe,92,CV,1533612910,100,14.9,-24.5,76.24,12.44
146,longyearbyen,0,NO,1533610200,61,78.22,15.63,46.4,2.48
147,ketchikan,1,US,1533610560,60,55.34,-131.65,71.6,4.7
148,rumoi,20,JP,1533610800,39,43.93,141.67,78.8,6.93
149,provideniya,90,RU,1533610800,87,64.42,-173.23,48.2,4.47
150,qena,0,EG,1533607200,38,26.16,32.72,87.8,3.38
151,rorvik,12,NO,1533612911,100,64.86,11.24,51.67,4.16
152,tuy hoa,92,VN,1533612911,79,13.08,109.3,85.02,16.46
153,yakeshi,100,CN,1533612912,89,49.28,120.73,65.49,10.76
154,tasiilaq,68,GL,1533610200,80,65.61,-37.64,41.0,6.93
155,paamiut,44,GL,1533612912,88,61.99,-49.67,44.29,20.27
156,manturovo,48,RU,1533612912,74,58.33,44.76,63.46,6.62
157,faanui,0,PF,1533612768,100,-16.48,-151.75,80.11,12.77
158,abha,40,SA,1533610800,88,18.22,42.5,66.2,3.36
159,yarim,48,YE,1533612913,100,14.3,44.38,52.35,1.81
160,mahebourg,75,MU,1533610800,53,-20.41,57.7,71.6,11.41
161,trofors,68,NO,1533612000,100,65.54,13.39,51.8,1.12
162,isangel,0,VU,1533612709,100,-19.55,169.27,72.24,9.64
163,collie,8,AU,1533612914,89,-33.36,116.15,58.51,13.56
164,oranjemund,100,ZA,1533612914,100,-28.55,16.43,55.32,15.23
165,tecoanapa,75,MX,1533609960,78,16.99,-99.26,82.4,3.36
166,belmopan,92,BZ,1533612914,66,17.25,-88.77,82.72,4.16
167,saryagash,0,KZ,1533610800,35,41.45,69.17,84.2,4.7
168,moyale,32,ET,1533612915,88,3.52,39.05,62.29,6.62
169,tura,64,IN,1533612846,93,25.52,90.21,80.97,1.7
170,meulaboh,8,ID,1533612915,100,4.14,96.13,79.53,1.92
171,roald,68,NO,1533612000,87,62.58,6.12,59.0,6.93
172,sisimiut,76,GL,1533612779,92,66.94,-53.67,43.12,1.59
173,fort nelson,75,CA,1533610800,38,58.81,-122.69,73.4,4.7
174,zhenlai,48,CN,1533612916,72,45.84,123.2,79.12,4.61
175,faya,40,SA,1533610800,88,18.39,42.45,66.2,3.36
176,dunmore town,24,BS,1533612917,99,25.5,-76.65,83.58,11.77
177,mar del plata,92,AR,1533612917,98,-46.43,-67.52,42.45,0.25
178,oistins,40,BB,1533610800,83,13.07,-59.53,80.6,20.8
179,voloshka,88,RU,1533612917,100,61.33,40.09,51.72,13.22
180,bonthe,100,SL,1533612917,100,7.53,-12.5,74.44,3.38
181,ponta do sol,68,BR,1533612918,95,-20.63,-46.0,57.84,2.93
182,bambous virieux,75,MU,1533610800,53,-20.34,57.76,71.6,11.41
183,cayenne,75,GF,1533610800,100,4.94,-52.33,75.2,7.96
184,quata,56,BR,1533612918,96,-22.25,-50.7,58.92,6.17
185,atuona,64,PF,1533612820,99,-9.8,-139.03,79.89,19.04
186,lukh,0,AF,1533612919,49,36.76,68.87,85.69,3.94
187,mahon,75,IE,1533610800,87,51.89,-8.4,55.4,5.82
188,comodoro rivadavia,0,AR,1533610800,81,-45.87,-67.48,42.8,6.93
189,komsomolskiy,92,RU,1533612919,87,67.55,63.78,53.74,9.75
190,biak,12,ID,1533612920,78,-0.91,122.88,82.23,7.18
191,laguna,32,MX,1533612920,68,27.52,-110.01,87.36,1.92
192,nouadhibou,75,MR,1533610800,94,20.93,-17.03,69.8,12.75
193,buchanan,75,LR,1533610800,94,5.88,-10.05,75.2,6.4
194,minnehaha,1,US,1533610560,45,45.66,-122.62,84.2,4.7
195,chuy,0,UY,1533612921,92,-33.69,-53.46,49.02,11.99
196,flinders,40,AU,1533610800,35,-34.58,150.85,57.2,33.33
197,marsh harbour,36,BS,1533612852,100,26.54,-77.06,83.04,11.65
198,port keats,0,AU,1533612922,38,-14.25,129.55,84.12,16.69
199,koutsouras,0,GR,1533612922,98,35.03,25.95,79.26,8.19
200,aksu,90,KZ,1533610800,72,52.04,76.93,62.6,8.95
201,baykit,56,RU,1533612923,83,61.68,96.39,50.77,4.72
202,tuktoyaktuk,90,CA,1533610800,81,69.44,-133.03,44.6,6.93
203,hofn,80,IS,1533612923,96,64.25,-15.21,49.83,31.79
204,oxford,1,US,1533610560,83,33.61,-85.83,78.8,3.36
205,ashtian,0,IR,1533610800,33,34.52,50.0,71.6,2.24
206,naze,68,NG,1533612924,96,5.43,7.07,69.49,5.17
207,guaymas,32,MX,1533612924,50,27.92,-110.9,92.22,4.94
208,grand gaube,75,MU,1533610800,53,-20.01,57.66,71.6,11.41
209,saskylakh,0,RU,1533612924,72,71.97,114.09,65.26,8.97
210,saint-medard-en-jalles,0,FR,1533612600,60,44.9,-0.72,75.2,8.05
211,moba,0,CD,1533612925,89,-7.04,29.77,60.81,3.27
212,conceicao do araguaia,56,BR,1533612925,60,-8.26,-49.26,78.9,8.63
213,zhangjiakou,92,CN,1533612925,100,40.77,114.88,69.76,3.71
214,kodiak,1,US,1533610380,94,39.95,-94.76,69.8,5.28
215,kimberley,0,ZA,1533610800,38,-28.74,24.76,39.2,8.05
216,lubao,75,PH,1533611700,79,14.94,120.6,86.0,9.17
217,riyadh,0,SA,1533610800,19,24.63,46.72,86.0,5.82
218,granadilla de abona,0,ES,1533612600,83,28.12,-16.58,80.6,8.05
219,fort-shevchenko,0,KZ,1533612927,95,44.51,50.26,73.05,1.7
220,stepnogorsk,80,KZ,1533612927,91,52.35,71.88,62.97,12.21
221,villa carlos paz,0,AR,1533610800,71,-31.42,-64.5,57.2,11.41
222,krasnyy chikoy,76,RU,1533612928,80,50.36,108.75,62.61,3.04
223,portland,75,US,1533610560,45,45.52,-122.67,84.2,11.41
224,kon tum,92,VN,1533612928,89,14.36,108.0,73.86,2.82
225,pelym,0,RU,1533612928,93,61.01,62.0,62.52,5.61
226,forbes,56,AU,1533612928,89,-33.38,148.01,48.07,13.89
227,auki,76,NG,1533612855,96,12.18,6.51,68.59,4.94
228,buraydah,0,SA,1533610800,30,26.33,43.97,86.0,3.36
229,bubaque,88,GW,1533612863,100,11.28,-15.83,79.12,13.67
230,iqaluit,90,CA,1533610800,100,63.75,-68.52,42.8,5.82
231,ormara,32,PK,1533612930,91,25.21,64.64,81.06,7.63
232,sibiti,0,CG,1533612930,92,-3.69,13.35,65.04,4.27
233,wladyslawowo,0,PL,1533612600,93,54.79,18.4,57.2,9.75
234,mogadishu,80,SO,1533612930,99,2.04,45.34,77.14,18.81
235,salym,80,RU,1533612931,94,60.06,71.48,59.73,11.54
236,qeshm,0,IR,1533610800,79,26.96,56.27,91.4,4.7
237,whitehaven,40,US,1533611700,69,35.03,-90.03,82.4,9.17
238,dalby,0,AU,1533607200,20,-27.18,151.26,64.4,21.92
239,batemans bay,0,AU,1533612932,63,-35.71,150.18,56.62,12.77
240,sao joao da barra,100,BR,1533612932,100,-21.64,-41.05,68.28,22.5
241,simiti,8,CO,1533612932,91,7.96,-73.94,78.72,1.81
242,mrakovo,36,RU,1533612932,75,52.72,56.62,72.78,3.49
243,neiafu,75,TO,1533610800,64,-18.65,-173.98,75.2,8.05
244,lawrenceburg,1,US,1533611700,88,35.24,-87.33,77.0,2.15
245,yar-sale,80,RU,1533612933,82,66.83,70.83,56.22,15.46
246,tayu,75,JP,1533610800,83,35.06,136.67,82.4,9.17
247,rovaniemi,0,FI,1533612000,81,66.5,25.72,46.4,6.93
248,coxim,80,BR,1533612934,94,-18.5,-54.75,63.78,3.6
249,tomatlan,80,MX,1533612934,98,19.93,-105.25,72.42,2.71
250,mehamn,75,NO,1533612000,76,71.03,27.85,48.2,21.92
251,iwaki,75,JP,1533610800,100,37.05,140.89,64.4,14.99
252,camalote,92,BZ,1533612935,66,17.25,-88.81,82.72,4.16
253,ilulissat,92,GL,1533610200,70,69.22,-51.1,44.6,1.12
254,saint anthony,1,US,1533610560,40,43.97,-111.68,71.6,2.59
255,cabo san lucas,5,MX,1533610200,69,22.89,-109.91,82.4,14.99
256,menongue,0,AO,1533612936,57,-14.66,17.68,53.25,2.93
257,alofi,40,NU,1533610800,61,-19.06,-169.92,77.0,14.99
258,lagoa,0,PT,1533610800,44,37.14,-8.45,75.2,4.7
259,dingle,92,PH,1533612846,100,11.0,122.67,74.44,9.98
260,yenagoa,36,NG,1533612914,91,4.92,6.26,70.71,4.83
261,lashio,36,MM,1533612937,90,22.93,97.75,75.21,2.48
262,gizo,20,IL,1533610200,73,31.8,34.94,78.8,6.93
263,puerto narino,90,CO,1533610800,100,-3.77,-70.38,73.4,3.36
264,port shepstone,0,ZA,1533612938,83,-30.74,30.45,59.14,7.63
265,shieli,0,KZ,1533612938,59,44.18,66.74,74.4,10.42
266,lohardaga,75,IN,1533610800,88,23.43,84.68,77.0,2.24
267,kaitangata,24,NZ,1533612938,75,-46.28,169.85,53.52,8.86
268,maseru,0,LS,1533612939,45,-29.31,27.48,35.7,7.18
269,vaitape,0,PF,1533612939,96,-16.52,-151.75,80.7,12.88
270,geraldton,90,CA,1533610800,93,49.72,-86.95,51.8,3.36
271,deputatskiy,0,RU,1533612939,49,69.3,139.9,55.54,6.51
272,nome,1,US,1533612240,88,30.04,-94.42,80.6,5.17
273,berlevag,75,NO,1533612000,76,70.86,29.09,48.2,21.92
274,carbonia,0,IT,1533610200,88,39.17,8.53,75.2,2.24
275,port lincoln,88,AU,1533612940,88,-34.72,135.86,58.06,24.96
276,half moon bay,90,US,1533610800,93,37.46,-122.43,84.2,6.93
277,malinovskiy,76,RU,1533612941,74,54.15,34.53,64.77,7.4
278,leningradskiy,20,RU,1533612941,100,69.38,178.42,35.07,9.42
279,severo-kurilsk,32,RU,1533612941,87,50.68,156.12,57.93,0.92
280,pangnirtung,92,CA,1533612941,96,66.15,-65.72,41.19,4.27
281,pasighat,12,IN,1533612942,74,28.06,95.33,83.76,1.59
282,caravelas,92,BR,1533612942,100,-17.73,-39.27,75.39,12.33
283,alexandria,1,US,1533611700,94,31.31,-92.44,73.4,3.6
284,erenhot,36,CN,1533612942,69,43.65,111.97,79.44,2.93
285,shelburne,90,CA,1533610860,78,44.08,-80.2,77.0,4.7
286,makakilo city,20,US,1533610620,48,21.35,-158.09,86.0,9.17
287,balkanabat,44,TM,1533612943,35,39.51,54.36,79.39,2.71
288,saint-francois,0,FR,1533610800,72,46.42,3.91,68.0,5.39
289,ambilobe,0,MG,1533612944,86,-13.19,49.05,59.19,4.94
290,saint george,0,GR,1533610200,60,39.45,22.34,69.8,5.82
291,vanimo,20,PG,1533612898,100,-2.67,141.3,82.23,6.29
292,jarwal,36,IN,1533612944,100,27.12,81.54,79.12,7.07
293,clyde river,1,CA,1533610800,75,70.47,-68.59,42.8,9.17
294,ville-marie,75,CA,1533610800,100,47.33,-79.44,62.6,8.05
295,yulara,0,AU,1533610800,28,-25.24,130.99,59.0,4.7
296,pachino,0,IT,1533612945,97,36.72,15.09,79.66,9.19
297,canutama,12,BR,1533612665,90,-6.53,-64.38,76.02,2.04
298,port macquarie,0,AU,1533610800,24,-31.43,152.91,66.2,16.11
299,westport,92,IE,1533612665,95,53.8,-9.52,55.5,10.54
300,gainesville,75,US,1533610500,74,29.65,-82.33,80.6,5.95
301,manokwari,20,ID,1533612946,100,-0.87,134.08,79.62,6.4
302,nyurba,0,RU,1533612946,62,63.29,118.35,68.32,3.71
303,kahului,20,US,1533610560,66,20.89,-156.47,84.2,26.4
304,yaan,92,NG,1533612947,99,7.38,8.57,71.56,7.52
305,chokurdakh,0,RU,1533612947,91,70.62,147.9,43.35,9.19
306,garowe,0,SO,1533612947,57,8.41,48.48,75.84,17.13
307,rostovka,0,RU,1533610800,63,55.02,73.58,64.4,11.18
308,kifri,0,IQ,1533612948,23,34.69,44.96,81.82,9.42
309,ipixuna,40,BR,1533610800,88,-1.76,-48.8,77.0,11.41
310,rio gallegos,90,AR,1533610800,95,-51.62,-69.22,33.8,5.82
311,grand forks,1,US,1533611700,72,47.91,-97.06,66.2,4.7
312,tilichiki,20,RU,1533612948,69,60.47,166.1,63.24,6.62
313,walvis bay,0,NA,1533612949,100,-22.95,14.51,56.44,17.36
314,maumere,8,ID,1533612949,95,-8.63,122.22,82.41,5.17
315,constantine,40,DZ,1533610800,93,36.36,6.61,62.6,2.24
316,kumluca,0,TR,1533612949,84,36.37,30.29,55.81,1.92
317,praia da vitoria,75,PT,1533610800,77,38.73,-27.07,69.8,5.95
318,manutuke,68,NZ,1533612950,96,-38.68,177.91,56.17,14.79
319,pueblo nuevo,56,MX,1533612951,77,23.99,-106.96,84.3,3.49
320,manggar,0,ID,1533612951,69,-2.88,108.27,87.0,12.33
321,elverum,0,NO,1533612951,94,60.88,11.56,49.38,2.59
322,morehead,1,US,1533610380,83,38.18,-83.43,75.2,3.36
323,bar harbor,1,US,1533610560,88,44.39,-68.2,77.0,4.7
324,dunedin,56,NZ,1533612952,81,-45.87,170.5,49.47,5.95
325,sitka,56,US,1533612926,35,37.17,-99.65,86.77,10.2
326,petropavlovsk-kamchatskiy,40,RU,1533610800,72,53.05,158.65,68.0,13.42
327,nanortalik,0,GL,1533612952,97,60.14,-45.24,40.69,9.75
328,noumea,0,NC,1533610800,50,-22.28,166.46,77.0,11.41
329,padang,40,ID,1533607200,66,-0.92,100.36,86.0,4.7
330,kruisfontein,44,ZA,1533612953,92,-34.0,24.73,53.29,23.62
331,penzance,92,GB,1533610200,93,50.12,-5.53,60.8,6.93
332,hargeysa,0,SO,1533612954,58,9.56,44.06,66.75,16.58
333,margate,20,AU,1533610800,46,-43.03,147.26,53.6,17.22
334,steenbergen,8,NL,1533612300,93,51.59,4.31,69.8,1.12
335,brae,88,GB,1533612000,82,60.4,-1.35,55.4,12.75
336,amahai,68,ID,1533612955,100,-3.31,129.0,80.43,15.46
337,bella union,8,CO,1533612955,56,8.5,-73.35,69.54,3.38
338,pau brasil,48,BR,1533612955,100,-15.46,-39.65,67.69,2.37
339,drawsko pomorskie,0,PL,1533612600,82,53.53,15.81,59.0,9.17
340,hachinohe,76,JP,1533612956,87,40.47,141.48,64.99,9.98
341,pauini,0,BR,1533612956,77,-7.71,-67.0,76.56,5.95
342,sinnamary,76,GF,1533612956,96,5.38,-52.96,81.6,10.87
343,wanaka,68,NZ,1533612956,57,-44.7,169.14,45.42,6.17
344,shenjiamen,8,CN,1533612956,91,29.96,122.3,85.11,8.75
345,mitsamiouli,20,KM,1533610800,88,-11.38,43.28,68.0,5.82
346,vao,88,EE,1533612957,66,59.1,26.19,62.11,10.65
347,acapulco,75,MX,1533609960,78,16.86,-99.88,82.4,3.36
348,jiwani,8,PK,1533612957,91,25.05,61.74,83.17,3.04
349,navrongo,92,GH,1533612958,82,10.89,-1.09,77.55,10.09
350,namtsy,0,RU,1533612958,47,62.72,129.66,69.22,5.17
351,hohhot,75,CN,1533610800,94,40.81,111.65,68.0,2.24
352,winton,0,AU,1533612958,46,-22.38,143.04,65.62,14.34
353,kalianget,0,ID,1533612959,50,-7.35,109.91,79.44,2.93
354,pitimbu,20,BR,1533610800,94,-7.47,-34.81,71.6,6.93
355,tautira,40,PF,1533610800,69,-17.73,-149.15,82.4,13.87
356,mugur-aksy,8,RU,1533612959,79,50.38,90.44,51.18,2.59
357,baton rouge,1,US,1533610380,88,30.45,-91.15,77.0,3.36
358,sakyla,0,FI,1533612000,87,61.03,22.33,53.6,1.12
359,norman wells,75,CA,1533610800,63,65.28,-126.83,60.8,10.29
360,lesozavodsk,0,RU,1533612961,76,45.47,133.42,78.36,9.08
361,souillac,0,FR,1533610800,68,45.6,-0.6,73.4,3.38
362,hambantota,12,LK,1533612961,88,6.12,81.12,83.17,18.14
363,talaya,0,RU,1533612961,70,55.79,84.89,60.45,8.75
364,progreso,0,UY,1533610800,76,-34.68,-56.22,53.6,9.17
365,lasa,40,CY,1533612600,78,34.92,32.53,77.0,4.7
366,yining,8,CN,1533612962,71,29.04,114.56,87.36,3.38
367,nibe,76,DK,1533612963,96,56.98,9.64,58.11,3.27
368,sioux lookout,40,CA,1533610800,100,50.1,-91.92,55.4,2.82
369,mill valley,1,US,1533610800,26,37.91,-122.55,84.2,11.41
370,korhogo,48,CI,1533612963,94,9.46,-5.63,71.34,6.29
371,mocuba,0,MZ,1533612964,70,-16.84,36.99,67.24,5.61
372,talnakh,68,RU,1533612964,83,69.49,88.39,50.64,8.08
373,buenavista,40,CO,1533610800,88,4.36,-75.74,75.2,1.36
374,pescara,0,IT,1533610200,94,42.46,14.21,68.0,4.7
375,zwedru,80,LR,1533612965,91,6.07,-8.13,70.35,7.4
376,canon city,0,US,1533612965,11,39.46,-117.13,71.43,3.94
377,mackenzie,75,CA,1533610800,28,55.34,-123.09,73.4,2.24
378,narsaq,0,GL,1533610200,65,60.91,-46.05,46.4,3.36
379,coahuayana,64,MX,1533612966,74,18.62,-100.35,67.74,2.04
380,kavaratti,76,IN,1533612966,98,10.57,72.64,81.96,24.29
381,inta,92,RU,1533612966,95,66.04,60.13,52.89,3.15
382,stromness,75,CA,1533610800,94,42.87,-79.55,77.0,5.82
383,upington,0,ZA,1533610800,77,-28.46,21.24,37.4,3.36
384,ruidoso,36,US,1533611700,40,33.33,-105.67,91.4,10.29
385,athlone,20,IE,1533612967,96,53.42,-7.94,49.51,6.62
386,bangassou,92,CF,1533612967,91,4.74,22.82,71.47,2.26
387,okha,20,RU,1533612968,93,53.59,142.95,65.26,4.27
388,jidong,36,CN,1533612968,68,45.25,131.14,71.61,5.95
389,vangaindrano,0,MG,1533612968,96,-23.35,47.6,54.42,2.48
390,la ronge,90,CA,1533610800,82,55.1,-105.3,66.2,4.7
391,the valley,40,AI,1533610800,78,18.22,-63.06,82.4,10.29
392,porto novo,75,BR,1533610800,100,-23.68,-45.44,57.2,3.36
393,grindavik,75,IS,1533610800,87,63.84,-22.43,46.4,20.8
394,kidal,12,ML,1533612969,81,18.44,1.41,75.07,3.38
395,elizabeth city,1,US,1533612000,94,36.3,-76.22,80.6,5.61
396,gobabis,0,NA,1533612944,56,-22.45,18.97,49.69,8.86
397,kununurra,0,AU,1533609000,9,-15.77,128.74,78.8,10.29
398,axim,44,GH,1533612970,100,4.87,-2.24,76.42,12.88
399,kolga,20,EE,1533612000,72,59.49,25.62,62.6,6.93
400,vostok,24,RU,1533612970,61,46.45,135.83,75.61,2.82
401,matagami,68,NG,1533612971,99,9.67,8.4,67.06,2.93
402,mansa,75,IN,1533610800,74,23.43,72.66,82.4,9.17
403,ust-charyshskaya pristan,0,RU,1533612971,53,52.39,83.67,66.12,10.76
404,young,0,UY,1533612791,88,-32.7,-57.63,49.96,11.88
405,langsa,32,ID,1533612971,76,4.47,97.97,81.24,1.92
406,xai-xai,0,MZ,1533612972,100,-25.04,33.64,66.34,14.0
407,suntar,20,RU,1533612972,67,62.16,117.65,68.59,3.71
408,san cristobal,75,EC,1533610800,87,-0.39,-78.55,51.8,16.11
409,ukiah,1,US,1533610560,47,39.15,-123.21,82.4,10.29
410,los llanos de aridane,0,ES,1533612600,78,28.66,-17.92,73.4,13.87
411,irituia,0,BR,1533612973,93,-1.77,-47.44,73.68,6.17
412,mitu,0,IR,1533612973,63,36.2,46.09,57.12,1.7
413,nishihara,90,JP,1533611520,94,35.74,139.53,73.4,14.99
414,kazerun,0,IR,1533612973,30,29.62,51.65,76.65,3.71
415,ucluelet,0,CA,1533612929,70,48.94,-125.55,68.82,1.59
416,ossora,20,RU,1533612974,84,59.24,163.07,62.47,4.38
417,sapulpa,1,US,1533611700,78,36.0,-96.11,89.6,8.08
418,palana,92,RU,1533612974,84,59.08,159.95,58.2,3.94
419,port townsend,1,US,1533611700,68,48.12,-122.76,69.8,6.93
420,torbat-e jam,0,IR,1533612975,37,35.24,60.63,74.94,11.99
421,kavieng,48,PG,1533612975,100,-2.57,150.8,80.92,3.38
422,chepareria,20,KE,1533612975,100,1.32,35.2,52.84,0.92
423,arroio grande,0,BR,1533612975,98,-32.24,-53.09,51.04,11.43
424,rincon,1,US,1533611700,88,32.3,-81.24,75.2,5.61
425,lavrentiya,36,RU,1533612976,100,65.58,-170.99,44.74,4.72
426,natitingou,75,BJ,1533610800,100,10.31,1.38,68.0,2.24
427,katangli,32,RU,1533612976,81,51.71,143.23,61.71,2.82
428,changji,64,CN,1533612977,83,32.07,116.17,89.97,4.38
429,labuhan,0,ID,1533612977,75,-2.54,115.51,83.04,3.6
430,kamphaeng phet,80,TH,1533612977,84,16.47,99.53,81.64,5.39
431,inhambane,20,MZ,1533612977,100,-23.87,35.38,68.91,6.96
432,hirado,40,JP,1533610800,63,33.32,129.49,95.0,9.17
433,ternate,75,PH,1533611700,79,14.29,120.72,86.0,8.05
434,nanning,40,CN,1533610800,66,22.83,108.3,89.6,2.24
435,werda,0,DE,1533612000,76,50.44,12.3,59.0,2.24
436,shimoda,75,JP,1533610800,83,34.7,138.93,86.0,26.4
437,phek,64,IN,1533612979,82,25.7,94.46,75.3,2.37
438,whitianga,12,NZ,1533612979,100,-36.83,175.7,58.38,3.15
439,port hedland,0,AU,1533610800,11,-20.31,118.58,75.2,17.22
440,abu samrah,0,SY,1533612979,96,35.3,37.18,68.37,9.42
441,hokitika,100,NZ,1533612980,100,-42.72,170.96,51.99,11.77
442,lompoc,1,US,1533610680,63,34.64,-120.46,78.8,12.75
443,palmer,40,AU,1533609000,66,-34.85,139.16,55.4,20.8
444,cacu,88,BR,1533612980,81,-18.56,-51.13,67.02,6.17
445,chawinda,75,PK,1533610800,88,32.35,74.71,78.8,9.17
446,hedaru,80,TZ,1533612981,94,-4.5,37.91,55.41,2.93
447,sihora,75,IN,1533610800,83,23.49,80.11,77.0,6.93
448,skjervoy,88,NO,1533612933,100,70.03,20.97,49.65,15.23
449,kisangani,80,CD,1533612981,96,0.52,25.21,71.52,2.71
450,richards bay,0,ZA,1533612982,85,-28.77,32.06,55.77,7.29
451,erzin,0,TR,1533610200,74,36.95,36.2,78.8,16.11
452,samana,44,EC,1533612982,91,0.12,-76.97,72.51,3.15
453,port-gentil,56,GA,1533612982,100,-0.72,8.78,72.91,11.21
454,arandis,0,NA,1533612982,82,-22.42,14.98,38.85,1.92
455,alihe,92,CN,1533612983,98,50.57,123.73,65.26,3.71
456,jalalabad,40,AF,1533610500,62,34.43,70.46,89.6,2.24
457,sambava,56,MG,1533612983,100,-14.27,50.17,72.46,9.53
458,nhamunda,0,BR,1533612983,48,-2.19,-56.71,83.49,5.17
459,bintulu,75,MY,1533607200,83,3.17,113.03,84.2,4.7
460,chapais,75,CA,1533610800,82,49.78,-74.86,64.4,3.36
461,parana,90,BR,1533610800,94,-7.52,-72.89,69.8,5.82
462,san patricio,0,PY,1533612771,81,-26.98,-56.83,43.8,2.93
463,leua,0,AO,1533612984,48,-11.65,20.45,52.21,2.93
464,mount gambier,92,AU,1533612796,84,-37.83,140.78,51.22,8.52
465,jacmel,0,HT,1533612985,99,18.24,-72.54,82.05,14.56
466,arzachena,0,IT,1533612600,83,41.08,9.39,73.4,8.05
467,viedma,76,AR,1533612985,49,-40.81,-62.99,55.77,9.75
468,nago,0,IT,1533610200,73,45.88,10.89,77.0,3.36
469,kholmogory,40,RU,1533610800,100,64.23,41.65,50.0,6.71
470,barra do garcas,24,BR,1533612986,75,-15.89,-52.26,70.26,2.48
471,fare,8,PF,1533612986,97,-16.7,-151.02,80.34,11.54
472,hay river,75,CA,1533610800,82,60.82,-115.79,66.2,10.29
473,kawalu,24,ID,1533612987,64,-7.38,108.21,73.23,2.82
474,rio rita,20,PA,1533610800,94,9.3,-79.79,78.8,4.7
475,teguise,20,ES,1533612600,83,29.06,-13.56,73.4,18.34
476,shepsi,64,RU,1533612987,94,44.04,39.15,81.6,8.19
477,pavilosta,24,LV,1533612000,100,56.89,21.19,60.8,1.12
478,barentu,76,ER,1533612988,96,15.11,37.59,64.86,2.71
479,rancho palos verdes,20,US,1533611280,78,33.75,-118.37,95.0,8.05
480,taitung,40,TW,1533610800,66,22.76,121.15,89.6,9.17
481,luderitz,0,NA,1533612794,89,-26.65,15.16,49.38,7.18
482,bambanglipuro,0,ID,1533612989,52,-7.95,110.28,82.99,7.29
483,itarema,8,BR,1533612989,83,-2.92,-39.92,76.83,13.89
484,nalut,0,LY,1533612989,74,31.86,10.98,73.5,5.39
485,gorodishche,56,RU,1533612989,80,53.27,45.7,67.42,1.25
486,chum phae,64,TH,1533612990,92,16.54,102.1,78.18,3.94
487,camacha,75,PT,1533610800,78,33.08,-16.33,71.6,16.11
488,nichinan,20,JP,1533610800,74,31.65,131.31,89.6,5.82
489,hornepayne,92,CA,1533612990,77,49.22,-84.78,58.96,4.38
490,segou,68,SN,1533612991,85,12.41,-12.29,75.21,11.21
491,klaksvik,44,FO,1533612000,93,62.23,-6.59,50.0,8.05
492,eskisehir,40,TR,1533610200,93,39.78,30.52,62.6,6.93
493,cururupu,0,BR,1533612807,90,-1.82,-44.87,76.83,7.29
494,selenginsk,75,RU,1533610800,64,52.01,106.87,68.0,15.66
495,maceio,40,BR,1533610800,94,-9.67,-35.74,69.8,1.12
496,codrington,0,AU,1533612992,48,-28.95,153.24,63.15,8.19
497,daru,92,SL,1533612992,98,7.99,-10.85,70.62,6.29
498,north bend,90,US,1533611700,87,43.41,-124.22,60.8,13.87
499,cordoba,32,CO,1533612992,85,5.59,-73.79,47.17,1.92
500,taoudenni,68,ML,1533612993,31,22.68,-3.98,84.3,2.37
501,tongchuan,12,CN,1533610800,59,34.9,108.95,91.4,4.47
502,sorland,92,NO,1533612993,100,67.67,12.69,53.29,5.17
503,sungurlu,0,TR,1533612993,84,40.17,34.38,57.3,3.04
504,sapa,75,PH,1533611700,79,14.32,120.76,86.0,8.05
505,puerto baquerizo moreno,92,EC,1533612994,100,-0.9,-89.6,70.89,15.01
506,salur,92,IN,1533612994,73,18.52,83.21,81.19,5.84
507,yemelyanovo,0,RU,1533610800,59,56.17,92.69,60.8,6.71
508,bouna,64,CI,1533612995,78,9.27,-3.0,75.93,7.29
509,cookeville,1,US,1533611700,94,36.16,-85.5,77.0,2.37
510,meadow lake,48,CA,1533612977,51,54.13,-108.44,71.43,9.98
511,hovd,0,NO,1533610200,87,63.83,10.7,55.4,8.05
512,ahuimanu,1,US,1533610620,62,21.44,-157.84,86.0,8.05
513,santa ana,40,SV,1533610200,100,13.99,-89.56,68.0,4.7
514,naifaru,76,MV,1533612996,98,5.44,73.37,83.17,18.59
515,ulladulla,40,AU,1533610800,35,-35.36,150.48,57.2,33.33
516,ulaangom,20,MN,1533612997,82,49.98,92.07,57.97,3.38
517,burnie,0,AU,1533612997,100,-41.05,145.91,51.81,22.84
518,zhanakorgan,0,KZ,1533612997,64,43.91,67.25,74.62,8.97
519,shimsk,76,RU,1533612997,72,58.21,30.71,60.09,7.4
520,armidale,8,AU,1533612998,66,-30.51,151.67,47.71,16.46
521,dhidhdhoo,92,MV,1533612998,100,6.88,73.1,81.24,18.7
522,mount isa,0,AU,1533610800,15,-20.73,139.49,68.0,12.75
523,mayo,75,CA,1533610800,63,63.59,-135.9,64.4,8.05
524,pizarro,88,CO,1533612999,97,4.95,-77.37,79.17,3.27
525,hamilton,75,CA,1533610860,94,43.26,-79.87,77.0,5.82
526,bathsheba,40,BB,1533610800,83,13.22,-59.52,80.6,20.8
527,vestmanna,64,FO,1533612000,93,62.16,-7.17,50.0,8.05
528,nigde,0,TR,1533612999,76,37.97,34.68,47.58,2.26
529,buenos aires,0,AR,1533610800,82,-34.61,-58.44,59.0,6.93
530,touros,88,BR,1533613001,94,-5.2,-35.46,74.89,12.21
531,udalguri,20,IN,1533613001,85,26.75,92.1,74.89,0.58
532,puerto colombia,75,CO,1533610800,94,10.99,-74.96,80.6,11.41
533,ararat,68,AU,1533613001,83,-37.28,142.93,48.84,13.44
534,san policarpo,100,PH,1533613002,93,12.18,125.51,82.99,19.15
535,puerto suarez,0,BO,1533613002,95,-18.96,-57.8,60.18,2.37
536,alta floresta,24,BR,1533613002,49,-9.87,-56.08,80.47,3.38
537,courtenay,0,FR,1533613002,64,48.04,3.06,67.92,4.38
538,vranje,0,RS,1533609000,88,42.55,21.9,62.6,1.92
539,glasgow,90,GB,1533612000,93,55.86,-4.24,59.0,1.12
540,nogent-le-rotrou,0,FR,1533612600,63,48.32,0.82,66.2,2.24
541,moroni,0,US,1533613003,35,39.52,-111.59,66.57,1.92
542,la palma,24,CO,1533613004,95,5.36,-74.39,65.62,0.69
543,zaraza,8,VE,1533613004,90,9.35,-65.33,76.24,3.94
544,saint-georges,20,CA,1533613005,89,46.12,-70.67,70.89,2.71
